[
  {
    "id": 1,
    "name": "Kikinda Centar",
    "startDate": "2010-02-01",
    "latitude": 45.821483,
    "longitude": 20.454008,
    "altitude": 78,
    "stationClassification": "background",
    "areaClassification": "urban",
    "charOfZone": "residential",
    "ozoneClassification": "suburban",
    "mainEmissionSource": "Agriculture",
    "city": "Kikinda",
    "cityPopulation": 38,
    "streetName": "Svetosavska bb"
  },
  {
    "id": 2,
    "name": "Novi Sad SPENS",
    "startDate": "2015-06-08",
    "latitude": 45.245065,
    "longitude": 19.84119,
    "altitude": 78,
    "stationClassification": "traffic",
    "areaClassification": "urban",
    "charOfZone": "residential/commercial",
    "city": "Novi Sad",
    "cityPopulation": 342,
    "streetName": "Bulevar oslobodjenja"
  },
  {
    "id": 3,
    "name": "Novi Sad Liman",
    "startDate": "2015-06-01",
    "latitude": 45.238642,
    "longitude": 19.835704,
    "altitude": 81,
    "stationClassification": "background",
    "areaClassification": "urban",
    "charOfZone": "residential",
    "ozoneClassification": "urban",
    "city": "Novi Sad",
    "cityPopulation": 342,
    "streetName": "Narodnog fronta 45"
  },
  {
    "id": 4,
    "name": "Beočin Centar",
    "startDate": "2015-07-02",
    "latitude": 45.208386,
    "longitude": 19.721709,
    "altitude": 87,
    "stationClassification": "background",
    "areaClassification": "urban",
    "charOfZone": "residential/industrial",
    "city": "Beočin",
    "cityPopulation": 15,
    "streetName": "Kralja Petra bb"
  },
  {
    "id": 5,
    "name": "Sremska Mitrovica",
    "startDate": "2015-07-02",
    "latitude": 44.972185,
    "longitude": 19.609349,
    "altitude": 82,
    "stationClassification": "traffic",
    "areaClassification": "urban",
    "charOfZone": "residential/commercial",
    "city": "Sremska Mitrovica",
    "cityPopulation": 86
  },
  {
    "id": 6,
    "name": "Pančevo Sodara",
    "startDate": "2015-07-02",
    "latitude": 44.862975,
    "longitude": 20.64429,
    "altitude": 80,
    "stationClassification": "industrial",
    "areaClassification": "urban",
    "charOfZone": "residential",
    "city": "Pančevo",
    "cityPopulation": 123,
    "streetName": "Naselje sodara"
  },
  {
    "id": 7,
    "name": "Beograd Stari grad",
    "startDate": "2015-07-02",
    "latitude": 44.82112,
    "longitude": 20.459113,
    "altitude": 103,
    "stationClassification": "background",
    "areaClassification": "urban",
    "charOfZone": "residential/commercial",
    "ozoneClassification": "urban",
    "city": "Beograd",
    "cityPopulation": 1659,
    "streetName": "Visnjiceva 7a"
  },
  {
    "id": 8,
    "name": "Beograd Pančevački most",
    "startDate": "2009-04-13",
    "latitude": 44.817608,
    "longitude": 20.486829,
    "altitude": 94,
    "stationClassification": "traffic",
    "areaClassification": "urban",
    "charOfZone": "commercial/industrial",
    "city": "Beograd",
    "cityPopulation": 1659,
    "streetName": "Bulevar despota Stefana"
  },
  {
    "id": 9,
    "name": "Beograd Novi Beograd",
    "startDate": "2015-07-02",
    "latitude": 44.803179,
    "longitude": 20.400152,
    "altitude": 74,
    "stationClassification": "background",
    "areaClassification": "urban",
    "charOfZone": "residential/commercial",
    "ozoneClassification": "urban",
    "city": "Beograd",
    "cityPopulation": 1659,
    "streetName": "Omladinskih brigada 35"
  },
  {
    "id": 10,
    "name": "Beograd Mostar",
    "startDate": "2015-07-02",
    "latitude": 44.798746,
    "longitude": 20.450184,
    "altitude": 83,
    "stationClassification": "traffic",
    "areaClassification": "urban",
    "charOfZone": "residential/commercial",
    "ozoneClassification": "urban",
    "city": "Beograd",
    "cityPopulation": 1659,
    "streetName": "Mostarska petlja bb"
  },
  {
    "id": 11,
    "name": "Beograd Vračar",
    "startDate": "2015-07-02",
    "latitude": 44.796959,
    "longitude": 20.475288,
    "altitude": 141,
    "stationClassification": "background",
    "areaClassification": "urban",
    "charOfZone": "residential/commercial",
    "city": "Beograd",
    "cityPopulation": 1659,
    "streetName": "Orlovića Pavla 17"
  },
  {
    "id": 12,
    "name": "Beograd Zeleno brdo",
    "startDate": "2008-11-17",
    "latitude": 44.786488,
    "longitude": 20.521715,
    "altitude": 240,
    "stationClassification": "background",
    "areaClassification": "suburban",
    "charOfZone": "residential",
    "ozoneClassification": "suburban",
    "city": "Beograd",
    "cityPopulation": 1659,
    "streetName": "Ruže Jovanovića 27a"
  },
  {
    "id": 13,
    "name": "Šabac",
    "startDate": "2015-07-02",
    "latitude": 44.749781,
    "longitude": 19.693917,
    "altitude": 79,
    "stationClassification": "background",
    "areaClassification": "suburban",
    "charOfZone": "residential",
    "city": "Šabac",
    "cityPopulation": 122,
    "streetName": "Popa Karana 2"
  },
  {
    "id": 14,
    "name": "Kostolac",
    "startDate": "2015-07-02",
    "latitude": 44.71749,
    "longitude": 21.173399,
    "altitude": 75,
    "stationClassification": "background",
    "areaClassification": "suburban",
    "charOfZone": "industrial",
    "city": "Kostolac",
    "cityPopulation": 13,
    "streetName": "MZ Kostolac"
  },
  {
    "id": 15,
    "name": "Smederevo Centar",
    "startDate": "2015-07-02",
    "latitude": 44.664084,
    "longitude": 20.926729,
    "altitude": 79,
    "stationClassification": "background",
    "areaClassification": "urban",
    "charOfZone": "residential/commercial",
    "city": "Smederevo",
    "cityPopulation": 110,
    "streetName": "Vojvode Đuše bb"
  },
  {
    "id": 16,
    "name": "Obrenovac Centar",
    "startDate": "2015-07-02",
    "latitude": 44.659478,
    "longitude": 20.204496,
    "altitude": 76,
    "stationClassification": "traffic",
    "areaClassification": "suburban",
    "charOfZone": "residential/commercial",
    "city": "Obrenovac",
    "cityPopulation": 25,
    "streetName": "Kralja Aleksandra"
  },
  {
    "id": 17,
    "name": "Smederevo Carina",
    "startDate": "2015-07-02",
    "latitude": 44.652336,
    "longitude": 20.931675,
    "altitude": 147,
    "stationClassification": "background",
    "areaClassification": "suburban",
    "charOfZone": "residential",
    "city": "Smederevo",
    "cityPopulation": 110,
    "streetName": "Branka Krsmanovića bb"
  },
  {
    "id": 18,
    "name": "Smederevo Radinac",
    "startDate": "2015-07-02",
    "latitude": 44.618723,
    "longitude": 20.968773,
    "altitude": 82,
    "stationClassification": "industrial",
    "areaClassification": "suburban",
    "charOfZone": "residential/industrial",
    "city": "Smederevo",
    "cityPopulation": 110,
    "streetName": "Dvorište crkve"
  },
  {
    "id": 19,
    "name": "Smederevo Ralja",
    "startDate": "2015-07-02",
    "latitude": 44.593587,
    "longitude": 20.971308,
    "altitude": 83,
    "stationClassification": "industrial",
    "areaClassification": "suburban",
    "charOfZone": "residential/industrial",
    "city": "Smederevo",
    "cityPopulation": 110,
    "streetName": "Dvorište ambulante i škole"
  },
  {
    "id": 20,
    "name": "Loznica",
    "startDate": "2015-07-02",
    "latitude": 44.53224,
    "longitude": 19.214534,
    "altitude": 122,
    "stationClassification": "background",
    "areaClassification": "urban",
    "charOfZone": "residential/commercial",
    "city": "Loznica",
    "cityPopulation": 86,
    "streetName": "Slobodana Penezića"
  },
  {
    "id": 21,
    "name": "Zajača",
    "startDate": "2015-07-02",
    "latitude": 44.492586962886,
    "longitude": 19.2425537109375,
    "stationClassification": "industrial",
    "areaClassification": "rural",
    "charOfZone": "agricultural/natural",
    "city": "Zajača"
  },
  {
    "id": 22,
    "name": "Valjevo",
    "startDate": "2015-07-02",
    "latitude": 44.273049,
    "longitude": 19.899006,
    "altitude": 181,
    "stationClassification": "traffic",
    "areaClassification": "urban",
    "charOfZone": "residential/commercial",
    "city": "Valjevo",
    "cityPopulation": 90,
    "streetName": "Vladike Nikolaja bb"
  },
  {
    "id": 23,
    "name": "Bor Krivelj",
    "startDate": "2015-07-02",
    "latitude": 44.137878,
    "longitude": 22.093133,
    "altitude": 401,
    "stationClassification": "industrial",
    "areaClassification": "rural",
    "charOfZone": "natural",
    "city": "Bor Krivelj",
    "cityPopulation": 49,
    "streetName": "Krivelj bb"
  },
  {
    "id": 24,
    "name": "Bor Brezonik",
    "startDate": "2008-12-01",
    "latitude": 44.098064,
    "longitude": 22.091738,
    "altitude": 390,
    "stationClassification": "industrial",
    "areaClassification": "rural",
    "charOfZone": "residential/industrial",
    "city": "Bor",
    "cityPopulation": 49,
    "streetName": "Dečanska bb"
  },
  {
    "id": 25,
    "name": "Bor Gradski park",
    "startDate": "2009-04-13",
    "latitude": 44.076003,
    "longitude": 22.099514,
    "altitude": 378,
    "stationClassification": "industrial",
    "areaClassification": "urban",
    "charOfZone": "residential/commercial",
    "city": "Bor",
    "cityPopulation": 49,
    "streetName": "Đorđa Vajferta bb"
  },
  {
    "id": 26,
    "name": "Bor Institut RIM",
    "startDate": "2015-07-02",
    "latitude": 44.059937,
    "longitude": 22.101434,
    "altitude": 389,
    "stationClassification": "industrial",
    "areaClassification": "urban",
    "charOfZone": "residential/commercial",
    "city": "Bor",
    "cityPopulation": 49,
    "streetName": "Zeleni bulevar bb"
  },
  {
    "id": 27,
    "name": "Kragujevac",
    "startDate": "2015-07-02",
    "latitude": 44.011573,
    "longitude": 20.925031,
    "altitude": 175,
    "stationClassification": "background",
    "areaClassification": "urban",
    "charOfZone": "residential/commercial",
    "city": "Kragujevac",
    "cityPopulation": 147,
    "streetName": "Kosovska bb"
  },
  {
    "id": 28,
    "name": "Kosjerić",
    "startDate": "2015-07-02",
    "latitude": 44.002941,
    "longitude": 19.905174,
    "altitude": 416,
    "stationClassification": "background",
    "areaClassification": "suburban",
    "charOfZone": "residential",
    "city": "Kosjerić",
    "cityPopulation": 12,
    "streetName": "Alekse Popovića"
  },
  {
    "id": 29,
    "name": "Popovac CRH",
    "startDate": "2015-07-02",
    "latitude": 43.910592,
    "longitude": 21.508391,
    "altitude": 200,
    "stationClassification": "industrial",
    "areaClassification": "suburban",
    "charOfZone": "residential",
    "city": "Popovac",
    "cityPopulation": 1,
    "streetName": "Branka Ristića"
  },
  {
    "id": 30,
    "name": "Zaječar",
    "startDate": "2015-07-02",
    "latitude": 43.902072,
    "longitude": 22.273255,
    "altitude": 133,
    "stationClassification": "background",
    "areaClassification": "urban",
    "charOfZone": "residential/commercial",
    "city": "Zaječar",
    "cityPopulation": 59,
    "streetName": "Kurulina bb"
  },
  {
    "id": 31,
    "name": "Čačak",
    "startDate": "2015-07-02",
    "latitude": 43.893316,
    "longitude": 20.345513,
    "altitude": 242,
    "stationClassification": "background",
    "areaClassification": "urban",
    "charOfZone": "residential/commercial",
    "city": "Čačak",
    "cityPopulation": 73,
    "streetName": "Kralja Petra I br.1"
  },
  {
    "id": 32,
    "name": "Paraćin",
    "startDate": "2015-07-02",
    "latitude": 43.859649,
    "longitude": 21.408121,
    "altitude": 130,
    "stationClassification": "background",
    "areaClassification": "urban",
    "charOfZone": "residential/commercial",
    "city": "Paraćin",
    "cityPopulation": 54,
    "streetName": "Dr. Dragoljuba Jovanovića 1/a"
  },
  {
    "id": 33,
    "name": "Užice",
    "startDate": "2015-07-02",
    "latitude": 43.854255,
    "longitude": 19.843181,
    "altitude": 407,
    "stationClassification": "traffic",
    "areaClassification": "urban",
    "charOfZone": "residential/commercial",
    "city": "Užice",
    "cityPopulation": 76,
    "streetName": "Omladinska"
  },
  {
    "id": 34,
    "name": "Kraljevo",
    "startDate": "2015-07-02",
    "latitude": 43.728017,
    "longitude": 20.693602,
    "altitude": 205,
    "stationClassification": "background",
    "areaClassification": "urban",
    "charOfZone": "residential/commercial",
    "city": "Kraljevo",
    "cityPopulation": 125,
    "streetName": "Dimitrija Tucovića"
  },
  {
    "id": 35,
    "name": "Kruševac",
    "startDate": "2015-07-02",
    "latitude": 43.58547,
    "longitude": 21.307667,
    "altitude": 152,
    "stationClassification": "background",
    "areaClassification": "urban",
    "charOfZone": "residential/commercial",
    "city": "Kruševac",
    "cityPopulation": 127,
    "streetName": "U Tanta bb"
  },
  {
    "id": 36,
    "name": "Kamenički Vis EMEP",
    "startDate": "2015-07-02",
    "latitude": 43.404011,
    "longitude": 21.947746,
    "altitude": 804,
    "stationClassification": "background",
    "areaClassification": "rural",
    "charOfZone": "natural",
    "city": "Kamenički Vis",
    "cityPopulation": 2,
    "streetName": "Kamenički vis PGZ poligon RHMZa"
  },
  {
    "id": 37,
    "name": "Niš O.š. Sveti Sava",
    "startDate": "2015-07-02",
    "latitude": 43.322554,
    "longitude": 21.919025,
    "altitude": 198,
    "stationClassification": "background",
    "areaClassification": "urban",
    "charOfZone": "residential/commercial",
    "city": "Niš",
    "cityPopulation": 260,
    "streetName": "Branka Krsmanovića"
  },
  {
    "id": 38,
    "name": "Niš IZJZ Niš",
    "startDate": "2015-07-02",
    "latitude": 43.316552,
    "longitude": 21.913548,
    "altitude": 200,
    "stationClassification": "traffic",
    "areaClassification": "urban",
    "charOfZone": "residential/commercial",
    "city": "Niš",
    "cityPopulation": 260,
    "streetName": "Bulevar Zorana Đinđića 50"
  },
  {
    "id": 39,
    "name": "Kopaonik",
    "startDate": "2015-07-02",
    "latitude": 43.28414,
    "longitude": 20.802102,
    "altitude": 1712,
    "stationClassification": "background",
    "areaClassification": "rural",
    "charOfZone": "natural",
    "city": "Kopaonik",
    "streetName": "Kopaonik"
  },
  {
    "id": 40,
    "name": "Vranje",
    "startDate": "2015-07-02",
    "latitude": 42.551125,
    "longitude": 21.896556,
    "altitude": 473,
    "stationClassification": "background",
    "areaClassification": "urban",
    "charOfZone": "residential/commercial",
    "city": "Vranje",
    "cityPopulation": 76,
    "streetName": "Partizanska bb"
  },
  {
    "id": 41,
    "name": "Subotica",
    "startDate": "2015-07-02",
    "latitude": 46.099435,
    "longitude": 19.670468,
    "stationClassification": "traffic",
    "areaClassification": "urban",
    "charOfZone": "residential/commercial",
    "city": "Subotica"
  },
  {
    "id": 42,
    "name": "Kikinda",
    "startDate": "2015-07-02",
    "latitude": 45.817098,
    "longitude": 20.44359,
    "stationClassification": "industrial",
    "areaClassification": "suburban",
    "charOfZone": "residential/industrial",
    "city": "Kikinda"
  },
  {
    "id": 43,
    "name": "Sombor",
    "startDate": "2015-07-02",
    "latitude": 45.769515,
    "longitude": 19.114429,
    "stationClassification": "traffic",
    "areaClassification": "urban",
    "charOfZone": "residential/commercial",
    "city": "Sombor"
  },
  {
    "id": 44,
    "name": "Zrenjanin",
    "startDate": "2015-07-02",
    "latitude": 45.383467,
    "longitude": 20.389666,
    "stationClassification": "traffic",
    "areaClassification": "urban",
    "charOfZone": "residential/commercial",
    "city": "Zrenjanin"
  },
  {
    "id": 45,
    "name": "Novi Sad Šangaj",
    "startDate": "2015-07-02",
    "latitude": 45.27237,
    "longitude": 19.873331,
    "stationClassification": "industrial",
    "areaClassification": "suburban",
    "charOfZone": "residential/industrial",
    "city": "Novi Sad"
  },
  {
    "id": 46,
    "name": "Deliblatska peščara",
    "startDate": "2015-07-02",
    "latitude": 44.94919,
    "longitude": 21.06788,
    "stationClassification": "background",
    "areaClassification": "rural",
    "charOfZone": "agricultural/natural",
    "city": "Deliblatska peščara"
  },
  {
    "id": 47,
    "name": "Obedska bara",
    "startDate": "2015-07-02",
    "latitude": 44.7351,
    "longitude": 19.986282,
    "stationClassification": "background",
    "areaClassification": "rural",
    "charOfZone": "natural",
    "city": "Obedska bara"
  },
  {
    "id": 48,
    "name": "Beograd Ovča",
    "startDate": "2015-07-02",
    "latitude": 44.884112,
    "longitude": 20.527552,
    "stationClassification": "background",
    "areaClassification": "suburban",
    "charOfZone": "residential/commercial",
    "city": "Beograd"
  },
  {
    "id": 49,
    "name": "Beograd Zemun TB",
    "startDate": "2015-07-02",
    "latitude": 44.835246,
    "longitude": 20.403299,
    "stationClassification": "background",
    "areaClassification": "urban",
    "charOfZone": "residential/commercial",
    "city": "Beograd"
  },
  {
    "id": 50,
    "name": "Beograd Despota Stefana",
    "startDate": "2015-07-02",
    "latitude": 44.8168146768154,
    "longitude": 20.4699406027794,
    "stationClassification": "traffic",
    "areaClassification": "urban",
    "charOfZone": "residential/commercial",
    "city": "Beograd"
  },
  {
    "id": 51,
    "name": "Beograd Oml. brigada",
    "startDate": "2015-07-02",
    "latitude": 44.805925,
    "longitude": 20.398811,
    "stationClassification": "background",
    "areaClassification": "urban",
    "charOfZone": "residential/commercial",
    "city": "Beograd"
  },
  {
    "id": 52,
    "name": "Beograd Slavija",
    "startDate": "2015-07-02",
    "latitude": 44.8029464067589,
    "longitude": 20.4667648673058,
    "stationClassification": "traffic",
    "areaClassification": "urban",
    "charOfZone": "residential/commercial",
    "city": "Beograd"
  },
  {
    "id": 53,
    "name": "Beograd Obrenovac",
    "startDate": "2015-07-02",
    "latitude": 44.6699995831708,
    "longitude": 20.1973316073418,
    "stationClassification": "background",
    "areaClassification": "suburban",
    "charOfZone": "residential/commercial",
    "city": "Obrenovac"
  },
  {
    "id": 54,
    "name": "Beograd Obrenovac Ušće",
    "startDate": "2015-07-02",
    "latitude": 44.629741,
    "longitude": 20.011135,
    "stationClassification": "industrial",
    "areaClassification": "rural",
    "charOfZone": "agricultural/natural",
    "city": "Beograd Obrenovac Ušće"
  },
  {
    "id": 55,
    "name": "Beograd Lazarevac",
    "startDate": "2015-07-02",
    "latitude": 44.384113,
    "longitude": 20.265436,
    "stationClassification": "background",
    "areaClassification": "suburban",
    "charOfZone": "residential/commercial",
    "city": "Lazarevac"
  },
  {
    "id": 56,
    "name": "Pančevo Cara Dušana",
    "startDate": "2015-07-02",
    "latitude": 44.870226,
    "longitude": 20.648069,
    "stationClassification": "traffic",
    "areaClassification": "urban",
    "charOfZone": "residential/commercial",
    "city": "Pančevo"
  },
  {
    "id": 57,
    "name": "Pančevo Vatrogasni dom",
    "startDate": "2015-07-02",
    "latitude": 44.8586504491852,
    "longitude": 20.6491014361382,
    "stationClassification": "industrial",
    "areaClassification": "suburban",
    "charOfZone": "residential/industrial",
    "city": "Pančevo"
  },
  {
    "id": 58,
    "name": "Pančevo Vojlovica",
    "startDate": "2015-07-02",
    "latitude": 44.8444518310066,
    "longitude": 20.669236779213,
    "stationClassification": "industrial",
    "areaClassification": "suburban",
    "charOfZone": "residential/industrial",
    "city": "Pančevo"
  },
  {
    "id": 59,
    "name": "Pančevo Starčevo",
    "startDate": "2015-07-02",
    "latitude": 44.808258,
    "longitude": 20.704773,
    "stationClassification": "industrial",
    "areaClassification": "suburban",
    "charOfZone": "residential/industrial",
    "city": "Pančevo"
  },
  {
    "id": 62,
    "name": "Obrenovac deponija",
    "startDate": "2009-10-01",
    "latitude": 44.636952,
    "longitude": 20.041396,
    "altitude": 77,
    "stationClassification": "industrial",
    "areaClassification": "rural",
    "city": "Obrenovac",
    "cityPopulation": 25
  },
  {
    "id": 63,
    "name": "Bor Tir Meteo",
    "startDate": "2013-05-01",
    "latitude": 44.08162,
    "longitude": 22.101531,
    "stationClassification": "industrial",
    "charOfZone": "industrial",
    "mainEmissionSource": "Industrial combustion",
    "city": "Bor"
  },
  {
    "id": 66,
    "name": "Bor Gr Park 3 - Demo",
    "startDate": "2015-11-06",
    "latitude": 44.066787,
    "longitude": 22.102243,
    "stationClassification": "industrial",
    "areaClassification": "urban",
    "city": "Bor"
  },
  {
    "id": 67,
    "name": "Bor Slatina",
    "startDate": "2016-05-09",
    "latitude": 44.040096,
    "longitude": 22.162871,
    "stationClassification": "industrial",
    "areaClassification": "rural",
    "charOfZone": "industrial/agricultural",
    "ozoneClassification": "rural",
    "mainEmissionSource": "Production processes",
    "city": "Bor"
  },
  {
    "id": 68,
    "name": "Beograd ADA",
    "startDate": "2017-04-01",
    "latitude": 44.789343,
    "longitude": 20.408971,
    "stationClassification": "background",
    "city": "Beograd"
  },
  {
    "id": 69,
    "name": "Veliki Crljeni",
    "startDate": "2016-12-01",
    "latitude": 44.4758084725346,
    "longitude": 20.3089141845703,
    "stationClassification": "industrial",
    "areaClassification": "rural",
    "city": "Beograd"
  },
  {
    "id": 70,
    "name": "KOSJERIĆ",
    "startDate": "2017-12-15",
    "latitude": 43.998275,
    "longitude": 19.907228,
    "city": "beograd"
  }
]